temperatura,altitud,presion,yaw,pitch,roll,compass,airSpeed,airTemperature,AirPressurePsi,latitud,longitud,tiempo,gpsSpeed,gpsTime
2.50,260.70,74.76,358.56,-0.75,2.94,9.40,0.00,19.08,0.00,0.000000,0.000000
,0,0,0,0,0,8.00,8.61,896.49,257.11,357.75,-0.88,3.12,25.09,0.00,19.08,0.00,0.000000,0.000000
,0,0,0,0,0,8.00,11.73,1221.44,350.31,355.87,-1.00,3.12,28.29,0.00,19.08,0.00,0.000000,0.000000
,365,365,229,393,0,8.00,15.33,1596.92,457.98,355.62,-0.94,3.00,29.09,0.00,19.08,0.00,0.000000,0.000000
,393,357,229,393,0,9.00,17.18,1788.81,513.01,355.62,-0.88,2.94,29.47,0.00,19.08,0.00,0.000000,0.000000
,393,357,229,393,0,9.00,18.67,1944.21,557.59,355.62,-0.88,2.94,29.11,0.00,19.08,0.00,0.000000,0.000000
,393,357,229,393,0,9.00,19.88,2070.11,593.69,355.62,-0.94,3.00,29.32,0.00,19.08,0.00,0.000000,0.000000
,393,357,229,393,0,9.00,20.86,2172.09,622.94,355.62,-0.94,3.00,29.61,0.00,19.08,0.00,0.000000,0.000000
,393,357,229,393,0,9.00,21.65,2254.64,646.63,355.62,-0.88,2.87,28.21,0.00,19.08,0.00,0.000000,0.000000
,393,357,229,393,0,9.00,22.29,2321.57,665.82,355.62,-0.88,2.94,28.50,0.00,19.08,0.00,0.000000,0.000000
,393,357,229,393,0,9.00,23.04,2398.82,687.99,355.62,-0.94,3.00,28.32,0.00,19.08,0.00,0.000000,0.000000
,393,357,229,393,0,9.00,23.42,2438.35,699.32,355.62,-0.94,2.94,28.81,0.00,19.08,0.00,0.000000,0.000000
,393,357,229,393,0,9.00,23.85,2483.99,712.41,355.62,-0.88,2.87,28.22,0.00,19.08,0.00,0.000000,0.000000
,393,357,229,393,0,10.00,24.08,2507.38,719.10,355.62,-0.88,2.94,28.33,0.00,19.08,0.00,0.000000,0.000000
,393,357,229,393,0,10.00,24.26,2526.28,724.52,355.62,-0.88,2.94,28.03,0.00,19.08,0.00,0.000000,0.000000
,393,357,229,393,0,10.00,24.41,2541.59,728.91,355.62,-0.88,2.94,27.67,0.00,19.08,0.00,0.000000,0.000000
,393,357,229,393,0,10.00,24.53,2553.97,732.47,355.62,-0.88,2.94,28.18,0.00,19.08,0.00,0.000000,0.000000
,393,357,229,393,0,10.00,24.62,2564.01,735.35,355.62,-0.88,2.94,27.39,0.00,19.08,0.00,0.000000,0.000000
,393,357,229,393,0,10.00,24.70,2572.17,737.68,355.62,-0.88,2.94,27.84,0.00,19.08,0.00,0.000000,0.000000
,393,357,229,393,0,10.00,24.77,2578.74,739.57,355.62,-0.88,2.94,27.49,0.00,19.08,0.00,0.000000,0.000000
,393,357,229,393,0,10.00,24.82,2584.04,741.10,355.62,-0.88,2.94,27.61,0.00,19.08,0.00,0.000000,0.000000
,393,357,229,393,0,10.00,24.86,2588.32,742.34,355.62,-0.88,2.94,27.53,0.00,19.08,0.00,0.000000,0.000000
,393,357,229,393,0,10.00,24.89,2591.79,743.35,355.62,-0.88,2.94,28.46,0.00,19.08,0.00,0.000000,0.000000
,393,357,229,393,0,11.00,24.92,2594.65,744.16,355.62,-0.88,2.94,27.89,0.00,19.08,0.00,0.000000,0.000000
,393,357,229,393,0,11.00,24.94,2596.97,744.82,355.62,-0.88,2.94,27.44,0.00,19.08,0.00,0.000000,0.000000
,393,357,229,393,0,11.00,24.96,2598.83,745.35,355.62,-0.88,2.94,27.35,0.00,19.08,0.00,0.000000,0.000000
,393,357,229,393,0,11.00,24.98,2600.34,745.79,355.62,-0.88,2.94,28.02,0.00,19.08,0.00,0.000000,0.000000
,393,357,229,393,0,11.00,24.99,2601.57,746.14,355.62,-0.88,2.87,27.04,0.00,19.08,0.00,0.000000,0.000000
,393,357,229,393,0,11.00,25.00,2602.54,746.42,355.62,-0.88,2.87,25.98,0.00,19.08,0.00,0.000000,0.000000
,393,357,229,393,0,11.00,25.01,2603.33,746.65,355.62,-0.88,2.81,26.20,0.00,19.08,0.00,0.000000,0.000000
,393,357,229,393,0,11.00,25.01,2603.95,746.84,355.62,-0.88,2.87,26.93,0.00,19.08,0.00,0.000000,0.000000
,393,357,229,393,0,11.00,25.02,2604.46,746.99,355.62,-0.88,2.87,27.84,0.00,19.08,0.00,0.000000,0.000000
,390,357,229,393,0,12.00,25.02,2604.93,747.11,355.62,-0.88,2.87,28.14,0.00,19.08,0.00,0.000000,0.000000
,390,357,229,393,0,12.00,25.03,2605.27,747.21,355.62,-0.88,2.87,28.08,0.00,19.08,0.00,0.000000,0.000000
,393,357,229,393,0,12.00,25.03,2605.55,747.29,355.62,-0.88,2.87,27.54,0.00,19.08,0.00,0.000000,0.000000
,393,357,229,393,0,12.00,25.03,2605.78,747.35,355.62,-0.88,2.81,27.08,0.00,19.08,0.00,0.000000,0.000000
,393,357,229,393,0,12.00,25.03,2605.96,747.41,355.62,-0.94,2.87,26.86,0.00,19.08,0.00,0.000000,0.000000
,393,357,229,393,0,12.00,25.03,2606.13,747.45,355.62,-0.94,2.87,26.75,0.00,19.08,0.00,0.000000,0.000000
,393,357,229,393,0,12.00,25.03,2606.23,747.48,355.62,-0.94,2.87,26.23,0.00,19.08,0.00,0.000000,0.000000
,393,357,229,393,0,12.00,25.03,2606.30,747.51,355.62,-0.94,2.87,27.07,0.00,19.08,0.00,0.000000,0.000000
,393,357,229,393,0,12.00,25.04,2606.39,747.54,355.62,-0.94,2.87,27.45,0.00,19.08,0.00,0.000000,0.000000
,393,357,229,393,0,12.00,25.04,2606.47,747.55,355.62,-0.94,2.87,27.75,0.00,19.08,0.00,0.000000,0.000000
,393,357,229,393,0,13.00,25.04,2606.49,747.57,355.62,-0.94,2.87,28.16,0.00,19.08,0.00,0.000000,0.000000
,393,357,229,393,0,13.00,25.04,2606.49,747.59,355.62,-0.94,2.94,29.69,0.00,19.08,0.00,0.000000,0.000000
,393,357,229,393,0,13.00,25.04,2606.55,747.59,355.62,-0.94,2.81,28.73,0.00,19.08,0.00,0.000000,0.000000
,393,357,229,393,0,13.00,25.04,2606.63,747.60,355.62,-0.88,2.81,28.73,0.00,19.08,0.00,0.000000,0.000000
,393,357,229,393,0,13.00,25.04,2606.62,747.61,355.62,-0.88,2.75,28.55,0.00,19.08,0.00,0.000000,0.000000
,393,357,229,393,0,13.00,25.04,2606.66,747.61,355.62,-0.88,2.75,28.33,0.00,19.08,0.00,0.000000,0.000000
,390,357,229,393,0,13.00,25.04,2606.67,747.61,355.62,-0.88,2.75,27.66,0.00,19.08,0.00,0.000000,0.000000
,390,357,229,393,0,13.00,25.04,2606.69,747.62,355.62,-0.88,2.75,28.03,0.00,19.08,0.00,0.000000,0.000000
,390,357,229,393,0,13.00,25.04,2606.72,747.62,355.62,-0.88,2.69,28.52,0.00,19.08,0.00,0.000000,0.000000
,390,357,229,393,0,13.00,25.04,2606.77,747.62,355.62,-0.88,2.75,29.59,0.00,19.08,0.00,0.000000,0.000000
,390,357,229,393,0,14.00,25.04,2606.75,747.62,355.62,-0.94,2.75,29.81,0.00,19.08,0.00,0.000000,0.000000
,390,357,229,393,0,14.00,25.04,2606.77,747.62,355.62,-0.94,2.75,29.20,0.00,19.08,0.00,0.000000,0.000000
,390,357,229,393,0,14.00,25.04,2606.75,747.62,355.62,-0.94,2.75,28.68,0.00,19.08,0.00,0.000000,0.000000
,390,357,229,393,0,14.00,25.04,2606.77,747.62,355.62,-0.94,2.75,29.17,0.00,19.08,0.00,0.000000,0.000000
,390,357,229,393,0,14.00,25.04,2606.78,747.62,355.62,-0.94,2.69,29.20,0.00,19.08,0.00,0.000000,0.000000
,390,357,229,393,0,14.00,25.04,2606.79,747.62,355.62,-0.94,2.75,28.15,0.00,19.08,0.00,0.000000,0.000000
,390,357,229,393,0,14.00,25.04,2606.81,747.62,355.62,-1.00,2.81,27.62,0.00,19.08,0.00,0.000000,0.000000
,390,357,229,393,0,14.00,25.04,2606.78,747.63,355.62,-0.94,2.69,28.01,0.00,19.08,0.00,0.000000,0.000000
,390,357,229,393,0,14.00,25.04,2606.72,747.63,355.62,-1.00,2.87,28.21,0.00,19.08,0.00,0.000000,0.000000
,390,357,229,393,0,15.00,25.04,2606.70,747.63,355.62,-1.00,2.87,29.43,0.00,19.08,0.00,0.000000,0.000000
,390,357,229,393,0,15.00,25.04,2606.72,747.63,355.62,-1.00,2.87,28.65,0.00,19.08,0.00,0.000000,0.000000
,390,357,229,393,0,15.00,25.04,2606.73,747.63,355.62,-1.00,2.87,28.07,0.00,19.08,0.00,0.000000,0.000000
,393,357,229,393,0,15.00,25.04,2606.74,747.63,355.81,-1.00,2.87,28.58,0.00,19.08,0.00,0.000000,0.000000
,393,357,229,393,0,15.00,25.04,2606.72,747.63,355.81,-1.00,2.94,28.39,0.00,19.08,0.00,0.000000,0.000000
,393,357,229,393,0,15.00,25.04,2606.73,747.63,355.81,-0.94,2.81,29.06,0.00,19.08,0.00,0.000000,0.000000
,393,357,229,393,0,15.00,25.04,2606.70,747.64,355.81,-0.88,2.69,29.51,0.00,19.08,0.00,0.000000,0.000000
,393,357,229,393,0,15.00,25.04,2606.71,747.63,355.81,-0.88,2.75,28.94,0.00,19.08,0.00,0.000000,0.000000
,393,357,229,393,0,15.00,25.04,2606.72,747.63,355.81,-0.88,2.75,28.97,0.00,19.08,0.00,0.000000,0.000000
,390,357,229,393,0,15.00,25.04,2606.73,747.63,355.81,-1.00,2.94,27.97,0.00,19.08,0.00,0.000000,0.000000
,390,357,229,393,0,16.00,25.04,2606.72,747.63,355.81,-1.00,2.94,28.02,0.00,19.08,0.00,0.000000,0.000000
,390,357,229,393,0,16.00,25.05,2606.73,747.63,355.81,-0.88,2.75,29.51,0.00,19.08,0.00,0.000000,0.000000
,393,357,229,393,0,16.00,25.05,2606.76,747.63,355.87,-1.00,2.94,29.76,0.00,19.08,0.00,0.000000,0.000000
,393,357,229,393,0,16.00,25.05,2606.75,747.63,355.87,-1.00,3.00,29.46,0.00,19.08,0.00,0.000000,0.000000
,390,357,229,393,0,16.00,25.05,2606.79,747.63,355.87,-1.00,3.00,29.24,0.00,19.08,0.00,0.000000,0.000000
,393,357,229,393,0,16.00,25.05,2606.81,747.63,355.87,-0.94,3.00,29.34,0.00,19.08,0.00,0.000000,0.000000
,393,357,229,393,0,16.00,25.05,2606.81,747.63,355.87,-1.00,3.00,28.32,0.00,19.08,0.00,0.000000,0.000000
,393,357,229,393,0,16.00,25.05,2606.75,747.63,355.87,-0.94,3.06,29.01,0.00,19.08,0.00,0.000000,0.000000
,393,357,229,393,0,16.00,25.05,2606.73,747.63,355.87,-0.88,3.12,29.63,0.00,19.08,0.00,0.000000,0.000000
,393,357,229,393,0,17.00,25.05,2606.76,747.63,355.69,-0.94,3.19,29.02,0.00,19.08,0.00,0.000000,0.000000
,395,357,229,393,0,17.00,25.05,2606.82,747.62,355.44,-0.94,3.19,28.64,0.00,19.08,0.00,0.000000,0.000000
,395,41,229,393,0,17.00,25.05,2606.77,747.63,355.44,-0.94,3.19,28.35,0.00,19.08,0.00,0.000000,0.000000
,395,41,229,393,0,17.00,25.05,2606.76,747.63,355.44,-0.94,3.19,28.51,0.00,19.08,0.00,0.000000,0.000000
,395,357,229,393,0,17.00,25.05,2606.76,747.63,355.44,-0.94,3.19,29.32,0.00,19.08,0.00,0.000000,0.000000
,395,357,229,393,0,17.00,25.05,2606.75,747.63,355.44,-0.94,3.19,27.58,0.00,19.08,0.00,0.000000,0.000000
,395,357,229,393,0,17.00,25.05,2606.79,747.63,355.44,-0.94,3.12,27.87,0.00,19.08,0.00,0.000000,0.000000
,395,357,229,393,0,17.00,25.05,2606.80,747.63,355.31,-1.00,3.12,28.02,0.00,19.08,0.00,0.000000,0.000000
,395,357,229,393,0,17.00,25.05,2606.75,747.63,355.25,-1.00,3.06,28.31,0.00,19.08,0.00,0.000000,0.000000
,393,357,229,393,0,18.00,25.05,2606.75,747.63,355.06,-1.00,3.12,28.25,0.00,19.08,0.00,0.000000,0.000000
,393,357,229,393,0,18.00,25.05,2606.71,747.63,355.06,-1.00,3.12,27.82,0.00,19.08,0.00,0.000000,0.000000
,393,357,229,393,0,18.00,25.06,2606.69,747.64,355.06,-0.94,3.19,28.73,0.00,19.08,0.00,0.000000,0.000000
,395,357,229,393,0,18.00,25.06,2606.62,747.64,354.81,-1.00,3.19,27.41,0.00,19.08,0.00,0.000000,0.000000
,395,357,229,393,0,19.00,25.06,2606.59,747.65,354.81,-0.94,3.25,27.42,0.00,19.08,0.00,0.000000,0.000000
,395,357,229,393,0,19.00,25.06,2606.61,747.64,354.69,-1.06,3.19,27.21,0.00,19.08,0.00,0.000000,0.000000
,395,357,229,393,0,19.00,25.06,2606.62,747.64,354.69,-1.00,2.94,26.33,0.00,19.08,0.00,0.000000,0.000000
,395,357,229,393,0,20.00,25.05,2606.64,747.64,354.69,-0.94,2.94,26.10,0.00,19.08,0.00,0.000000,0.000000
,395,357,229,393,0,20.00,25.05,2606.62,747.64,354.69,-0.94,2.94,26.19,0.00,19.08,0.00,0.000000,0.000000
,393,357,229,393,0,20.00,25.05,2606.63,747.64,354.69,-0.94,2.94,26.54,0.00,19.08,0.00,0.000000,0.000000
,393,357,229,393,0,20.00,25.05,2606.60,747.64,354.69,-0.94,2.94,26.00,0.00,19.08,0.00,0.000000,0.000000
,393,357,229,393,0,20.00,25.05,2606.58,747.65,354.69,-0.94,2.87,26.92,0.00,19.08,0.00,0.000000,0.000000
,393,357,229,393,0,20.00,25.05,2606.60,747.64,354.69,-0.94,2.87,25.61,0.00,19.08,0.00,0.000000,0.000000
,393,357,229,393,0,20.00,25.05,2606.65,747.64,354.69,-0.94,2.87,25.45,0.00,19.08,0.00,0.000000,0.000000
,393,357,229,393,0,20.00,25.05,2606.66,747.64,354.69,-0.94,2.87,25.66,0.00,19.08,0.00,0.000000,0.000000
,393,357,229,393,0,20.00,25.05,2606.65,747.64,354.69,-0.94,2.87,26.30,0.00,19.08,0.00,0.000000,0.000000
,393,357,229,393,0,21.00,25.05,2606.59,747.65,354.69,-0.94,2.87,25.84,0.00,19.08,0.00,0.000000,0.000000
,393,357,229,393,0,21.00,25.05,2606.57,747.65,354.69,-0.94,2.87,26.82,0.00,19.08,0.00,0.000000,0.000000
,393,357,229,393,0,21.00,25.06,2606.52,747.65,354.69,-0.94,2.87,25.93,0.00,19.08,0.00,0.000000,0.000000
,393,357,229,393,0,21.00,25.05,2606.54,747.65,354.69,-0.94,2.87,26.18,0.00,19.08,0.00,0.000000,0.000000
,393,357,229,393,0,21.00,25.05,2606.54,747.65,354.69,-0.94,2.87,26.30,0.00,19.08,0.00,0.000000,0.000000
,393,357,229,393,0,21.00,25.05,2606.61,747.64,354.69,-0.94,2.87,25.31,0.00,19.08,0.00,0.000000,0.000000
,393,357,229,393,0,21.00,25.05,2606.62,747.64,354.69,-0.94,2.87,25.83,0.00,19.08,0.00,0.000000,0.000000
,393,357,229,393,0,21.00,25.05,2606.60,747.64,354.69,-0.94,2.87,25.99,0.00,19.08,0.00,0.000000,0.000000
,393,357,229,393,0,21.00,25.05,2606.63,747.64,354.69,-0.94,2.87,25.79,0.00,19.08,0.00,0.000000,0.000000
,393,357,229,393,0,21.00,25.05,2606.65,747.64,354.69,-0.94,2.87,25.86,0.00,19.08,0.00,0.000000,0.000000
,393,357,229,393,0,22.00,25.05,2606.63,747.64,354.69,-0.94,2.87,26.49,0.00,19.08,0.00,0.000000,0.000000
,393,357,229,393,0,22.00,25.05,2606.63,747.64,354.69,-0.94,2.87,26.21,0.00,19.08,0.00,0.000000,0.000000
,393,357,229,393,0,22.00,25.05,2606.59,747.65,354.69,-0.94,2.87,26.58,0.00,19.08,0.00,0.000000,0.000000
,393,357,229,393,0,22.00,25.05,2606.57,747.65,354.69,-0.94,2.87,26.22,0.00,19.08,0.00,0.000000,0.000000
,393,357,229,393,0,22.00,25.05,2606.56,747.65,354.69,-0.94,2.87,26.27,0.00,19.08,0.00,0.000000,0.000000
,393,357,229,393,0,22.00,25.05,2606.66,747.64,354.69,-0.94,2.87,26.43,0.00,19.08,0.00,0.000000,0.000000
,393,357,229,393,0,22.00,25.05,2606.68,747.64,354.69,-0.94,2.87,27.08,0.00,19.08,0.00,0.000000,0.000000
,393,357,229,393,0,22.00,25.05,2606.65,747.64,354.69,-0.94,2.87,26.74,0.00,19.08,0.00,0.000000,0.000000
,393,357,229,393,0,22.00,25.05,2606.68,747.64,354.69,-0.94,2.87,25.89,0.00,19.08,0.00,0.000000,0.000000
,393,357,229,393,0,23.00,25.06,2606.70,747.64,354.69,-0.94,2.87,26.12,0.00,19.08,0.00,0.000000,0.000000
,393,357,229,393,0,23.00,25.06,2606.69,747.64,354.69,-0.94,2.94,25.97,0.00,19.08,0.00,0.000000,0.000000
,393,357,229,393,0,23.00,25.06,2606.66,747.64,354.69,-0.94,2.87,26.81,0.00,19.08,0.00,0.000000,0.000000
,393,357,229,393,0,23.00,25.06,2606.62,747.64,354.69,-0.94,2.87,26.52,0.00,19.08,0.00,0.000000,0.000000
,393,357,229,393,0,23.00,25.06,2606.59,747.65,354.69,-0.94,2.87,27.00,0.00,19.08,0.00,0.000000,0.000000
,393,357,229,393,0,23.00,25.06,2606.61,747.64,354.69,-0.94,2.87,27.06,0.00,19.08,0.00,0.000000,0.000000
,393,357,229,393,0,23.00,25.06,2606.65,747.64,354.69,-0.94,2.87,26.51,0.00,19.08,0.00,0.000000,0.000000
,393,357,229,393,0,23.00,25.06,2606.67,747.64,354.69,-0.94,2.87,26.27,0.00,19.08,0.00,0.000000,0.000000
,393,357,229,393,0,23.00,25.06,2606.73,747.63,354.69,-0.94,2.87,27.07,0.00,19.08,0.00,0.000000,0.000000
,393,357,229,393,0,24.00,25.06,2606.71,747.63,354.69,-0.94,2.87,27.65,0.00,19.08,0.00,0.000000,0.000000
,393,357,229,393,0,24.00,25.06,2606.68,747.64,354.69,-0.94,2.81,27.75,0.00,19.08,0.00,0.000000,0.000000
,393,357,229,393,0,24.00,25.06,2606.64,747.64,354.69,-0.94,2.81,26.47,0.00,19.08,0.00,0.000000,0.000000
,393,357,229,393,0,24.00,25.06,2606.63,747.64,354.69,-0.94,2.81,25.93,0.00,19.08,0.00,0.000000,0.000000
,393,357,229,393,0,24.00,25.06,2606.67,747.64,354.69,-0.94,2.81,25.90,0.00,19.08,0.00,0.000000,0.000000
,390,357,229,393,0,24.00,25.06,2606.63,747.64,354.69,-0.94,2.81,26.36,0.00,19.08,0.00,0.000000,0.000000
,390,357,229,393,0,24.00,25.06,2606.63,747.64,354.69,-0.88,2.81,27.29,0.00,19.08,0.00,0.000000,0.000000
,390,357,229,393,0,24.00,25.06,2606.63,747.64,354.69,-0.88,2.81,27.51,0.00,19.08,0.00,0.000000,0.000000
,390,357,229,393,0,24.00,25.06,2606.65,747.64,354.69,-0.88,2.81,26.36,0.00,19.08,0.00,0.000000,0.000000
,390,357,229,393,0,24.00,25.06,2606.68,747.64,354.69,-0.88,2.75,26.68,0.00,19.08,0.00,0.000000,0.000000
,390,357,229,393,0,25.00,25.06,2606.69,747.64,354.69,-0.94,2.75,26.25,0.00,19.08,0.00,0.000000,0.000000
,390,357,229,393,0,25.00,25.06,2606.67,747.64,354.69,-1.00,2.75,26.09,0.00,19.08,0.00,0.000000,0.000000
,390,357,229,393,0,25.00,25.06,2606.72,747.63,354.69,-0.94,2.75,26.63,0.00,19.08,0.00,0.000000,0.000000
,390,357,229,393,0,25.00,25.06,2606.76,747.63,354.69,-0.94,2.75,26.71,0.00,19.08,0.00,0.000000,0.000000
,390,357,229,393,0,25.00,25.06,2606.74,747.63,354.69,-0.94,2.75,25.29,0.00,19.08,0.00,0.000000,0.000000
,390,357,229,393,0,25.00,25.06,2606.72,747.63,354.69,-0.94,2.75,25.67,0.00,19.08,0.00,0.000000,0.000000
,390,357,229,393,0,25.00,25.06,2606.72,747.63,354.62,-1.00,2.75,26.29,0.00,19.08,0.00,0.000000,0.000000
,390,357,229,393,0,25.00,25.06,2606.70,747.64,354.69,-0.81,2.87,27.03,0.00,19.08,0.00,0.000000,0.000000
,390,357,229,393,0,25.00,25.06,2606.67,747.64,354.69,-0.62,3.00,26.94,0.00,19.08,0.00,0.000000,0.000000
,390,357,229,393,0,26.00,25.06,2606.61,747.65,354.69,-0.69,3.12,26.93,0.00,19.08,0.00,0.000000,0.000000
,390,357,229,393,0,26.00,25.06,2606.62,747.64,354.69,-0.62,3.00,26.82,0.00,19.08,0.00,0.000000,0.000000
,393,360,229,393,0,26.00,25.06,2606.65,747.64,354.69,-0.56,3.06,27.51,0.00,19.08,0.00,0.000000,0.000000
,393,360,229,393,0,26.00,25.06,2606.68,747.64,354.69,-0.56,3.00,27.61,0.00,19.08,0.00,0.000000,0.000000
,393,360,229,393,0,26.00,25.06,2606.65,747.64,354.69,-0.56,3.00,27.20,0.00,19.08,0.00,0.000000,0.000000
,393,360,229,393,0,26.00,25.06,2606.64,747.64,354.69,-0.50,3.06,26.34,0.00,19.08,0.00,0.000000,0.000000
,393,362,229,393,0,26.00,25.06,2606.64,747.64,354.69,-0.50,3.06,25.71,0.00,19.08,0.00,0.000000,0.000000
,393,362,229,393,0,26.00,25.06,2606.65,747.64,354.69,-0.50,3.12,25.78,0.00,19.08,0.00,0.000000,0.000000
,393,362,229,393,0,26.00,25.06,2606.69,747.64,354.69,-0.50,3.12,24.97,0.00,19.08,0.00,0.000000,0.000000
,393,362,229,393,0,26.00,25.06,2606.75,747.63,354.69,-0.50,3.12,24.99,0.00,19.08,0.00,0.000000,0.000000
,393,362,229,393,0,27.00,25.06,2606.72,747.63,354.69,-0.50,3.06,25.29,0.00,19.08,0.00,0.000000,0.000000
,393,362,229,393,0,27.00,25.06,2606.72,747.63,354.69,-0.50,3.06,24.50,0.00,19.08,0.00,0.000000,0.000000
,393,362,229,393,0,27.00,25.06,2606.70,747.64,354.69,-0.50,3.06,23.90,0.00,19.08,0.00,0.000000,0.000000
,393,362,229,393,0,27.00,25.06,2606.70,747.64,354.69,-0.50,3.06,24.07,0.00,19.08,0.00,0.000000,0.000000
,393,362,229,393,0,27.00,25.06,2606.67,747.64,354.69,-0.50,3.00,23.94,0.00,19.08,0.00,0.000000,0.000000
,393,362,229,393,0,27.00,25.06,2606.68,747.64,354.69,-0.50,3.00,23.52,0.00,19.08,0.00,0.000000,0.000000
,393,362,229,393,0,27.00,25.06,2606.73,747.63,354.69,-0.56,3.00,23.24,0.00,19.08,0.00,0.000000,0.000000
,393,362,229,393,0,27.00,25.06,2606.76,747.63,354.69,-0.50,2.94,24.43,0.00,19.08,0.00,0.000000,0.000000
,393,362,229,393,0,27.00,25.06,2606.77,747.63,354.69,-0.50,3.00,24.16,0.00,19.08,0.00,0.000000,0.000000
,393,362,229,393,0,28.00,25.06,2606.78,747.63,354.69,-0.50,2.94,24.65,0.00,19.08,0.00,0.000000,0.000000
,393,362,229,393,0,28.00,25.06,2606.76,747.63,354.69,-0.50,3.00,24.99,0.00,19.08,0.00,0.000000,0.000000
,393,362,229,393,0,28.00,25.06,2606.70,747.64,355.19,-0.56,3.19,25.58,0.00,19.08,0.00,0.000000,0.000000
,393,362,229,393,0,28.00,25.06,2606.68,747.64,354.31,-0.62,3.19,25.48,0.00,19.08,0.00,0.000000,0.000000
,393,362,229,393,0,28.00,25.06,2606.67,747.64,353.00,-0.56,2.94,24.43,0.00,19.08,0.00,0.000000,0.000000
,393,362,229,393,0,28.00,25.06,2606.74,747.63,351.00,-0.62,2.94,22.89,0.00,19.08,0.00,0.000000,0.000000
,395,360,229,393,0,28.00,25.06,2606.73,747.63,350.37,-0.81,3.12,20.09,0.00,19.08,0.00,0.000000,0.000000
,393,362,229,393,0,28.00,25.06,2606.70,747.64,349.31,-0.75,3.00,17.25,0.00,19.08,0.00,0.000000,0.000000
,393,362,229,393,0,28.00,25.06,2606.71,747.63,348.31,-0.81,3.00,12.53,0.00,19.08,0.00,0.000000,0.000000
,393,360,229,393,0,29.00,25.06,2606.73,747.63,348.37,-0.75,3.00,11.34,0.00,19.08,0.00,0.000000,0.000000
,393,360,229,393,0,29.00,25.06,2606.76,747.63,347.87,-0.81,3.00,10.23,0.00,19.08,0.00,0.000000,0.000000
,393,360,229,393,0,29.00,25.06,2606.70,747.64,348.94,-0.75,3.00,10.15,0.00,19.08,0.00,0.000000,0.000000
,393,360,229,393,0,29.00,25.06,2606.66,747.64,349.12,-0.69,2.94,10.09,0.00,19.08,0.00,0.000000,0.000000
,393,360,229,393,0,29.00,25.06,2606.68,747.64,349.19,-0.69,2.94,11.45,0.00,19.08,0.00,0.000000,0.000000
,393,360,229,393,0,29.00,25.06,2606.69,747.64,349.19,-0.69,3.00,13.00,0.00,19.08,0.00,0.000000,0.000000
,393,360,229,393,0,29.00,25.06,2606.70,747.64,349.19,-0.69,3.00,12.22,0.00,19.08,0.00,0.000000,0.000000
,393,360,229,393,0,29.00,25.06,2606.67,747.64,348.75,-0.69,3.00,12.12,0.00,19.08,0.00,0.000000,0.000000
,393,360,229,393,0,29.00,25.06,2606.65,747.64,346.12,-0.81,2.94,10.79,0.00,19.08,0.00,0.000000,0.000000
,393,360,229,393,0,29.00,25.06,2606.62,747.64,345.69,-0.88,2.94,8.11,0.00,19.08,0.00,0.000000,0.000000
,393,360,229,393,0,30.00,25.07,2606.61,747.65,345.69,-0.88,3.00,7.25,0.00,19.08,0.00,0.000000,0.000000
,393,360,229,393,0,30.00,25.07,2606.61,747.65,345.94,-0.88,3.00,6.56,0.00,19.08,0.00,0.000000,0.000000
,393,357,229,393,0,30.00,25.07,2606.63,747.64,346.19,-0.81,3.00,6.44,0.00,19.08,0.00,0.000000,0.000000
,393,357,229,393,0,30.00,25.06,2606.67,747.64,346.19,-0.81,3.00,5.99,0.00,19.08,0.00,0.000000,0.000000
,393,357,229,393,0,30.00,25.07,2606.67,747.64,346.00,-0.88,3.06,5.97,0.00,19.08,0.00,0.000000,0.000000
,393,357,229,393,0,30.00,25.07,2606.72,747.63,346.06,-0.81,3.00,6.12,0.00,19.08,0.00,0.000000,0.000000
,393,360,229,393,0,30.00,25.06,2606.77,747.63,346.06,-0.81,3.00,6.25,0.00,19.08,0.00,0.000000,0.000000
,393,357,229,393,0,30.00,25.06,2606.79,747.63,346.06,-0.81,3.00,5.02,0.00,19.08,0.00,0.000000,0.000000
,393,357,229,393,0,30.00,25.06,2606.78,747.63,346.69,-0.81,3.00,5.05,0.00,19.08,0.00,0.000000,0.000000
,393,360,229,393,0,31.00,25.06,2606.80,747.63,347.00,-0.75,2.94,5.66,0.00,19.08,0.00,0.000000,0.000000
,393,360,229,393,0,31.00,25.06,2606.80,747.63,347.00,-0.75,2.94,6.26,0.00,19.08,0.00,0.000000,0.000000
,393,360,229,393,0,31.00,25.06,2606.81,747.62,347.00,-0.75,2.94,7.59,0.00,19.08,0.00,0.000000,0.000000
,393,360,229,393,0,31.00,25.06,2606.84,747.62,347.00,-0.75,2.94,7.50,0.00,19.08,0.00,0.000000,0.000000
,393,360,229,393,0,31.00,25.06,2606.84,747.62,347.00,-0.75,2.94,6.26,0.00,19.08,0.00,0.000000,0.000000
,393,360,229,393,0,31.00,25.06,2606.79,747.63,347.00,-0.75,2.94,6.93,0.00,19.08,0.00,0.000000,0.000000
,393,360,229,393,0,31.00,25.06,2606.81,747.62,347.00,-0.75,2.87,7.16,0.00,19.08,0.00,0.000000,0.000000
,393,360,229,393,0,31.00,25.06,2606.81,747.62,347.00,-0.75,2.87,7.48,0.00,19.08,0.00,0.000000,0.000000
,393,360,229,393,0,31.00,25.06,2606.82,747.62,347.69,-0.81,3.19,7.64,0.00,19.08,0.00,0.000000,0.000000
,393,360,229,393,0,32.00,25.06,2606.80,747.63,346.19,-0.88,3.12,6.48,0.00,19.08,0.00,0.000000,0.000000
,393,360,229,393,0,32.00,25.06,2606.85,747.62,346.00,-0.88,3.19,5.80,0.00,19.08,0.00,0.000000,0.000000
,393,360,229,393,0,32.00,25.06,2606.83,747.62,344.87,-0.94,5.81,3.97,0.00,19.08,0.00,0.000000,0.000000
,393,357,229,393,0,32.00,25.06,2606.83,747.62,350.69,1.69,15.19,6.86,0.00,19.08,0.00,0.000000,0.000000
,393,357,229,393,0,32.00,25.06,2606.82,747.62,353.00,2.31,23.37,8.94,0.00,19.08,0.00,0.000000,0.000000
,420,357,229,393,0,32.00,25.06,2606.86,747.62,355.25,2.25,32.06,8.40,0.00,19.08,0.00,0.000000,0.000000
,420,357,229,393,0,32.00,25.06,2606.85,747.62,356.87,3.81,34.56,7.72,0.00,19.08,0.00,0.000000,0.000000
,529,382,229,393,0,32.00,25.06,2606.82,747.62,357.81,1.69,33.00,5.11,0.00,19.08,0.00,0.000000,0.000000
,529,384,229,393,0,32.00,25.06,2606.80,747.63,358.37,-2.81,31.87,2.74,0.00,19.08,0.00,0.000000,0.000000
,529,384,229,393,0,33.00,25.06,2606.81,747.62,358.12,-11.81,32.88,0.72,0.00,19.08,0.00,0.000000,0.000000
,529,387,229,393,0,33.00,25.06,2606.82,747.62,356.56,-23.56,33.31,357.55,0.00,19.08,0.00,0.000000,0.000000
,529,387,229,393,0,33.00,25.06,2606.84,747.62,0.69,-26.19,30.87,353.80,0.00,19.08,0.00,0.000000,0.000000
,529,341,229,393,0,33.00,25.06,2606.86,747.62,4.06,-21.31,29.06,355.79,0.00,19.08,0.00,0.000000,0.000000
,529,202,229,393,0,33.00,25.06,2606.86,747.62,9.19,-15.25,27.69,359.34,0.00,19.08,0.00,0.000000,0.000000
,529,202,229,393,0,33.00,25.07,2606.86,747.62,14.88,-13.50,25.31,5.62,0.00,19.08,0.00,0.000000,0.000000
,529,202,229,393,0,33.00,25.07,2606.84,747.62,19.62,-10.94,24.56,11.67,0.00,19.08,0.00,0.000000,0.000000
,529,202,229,393,0,33.00,25.07,2606.84,747.62,22.56,-4.00,23.19,16.84,0.00,19.08,0.00,0.000000,0.000000
,529,234,229,393,0,33.00,25.06,2606.85,747.62,20.56,-2.12,22.56,21.00,0.00,19.08,0.00,0.000000,0.000000
,529,261,229,393,0,34.00,25.07,2606.85,747.62,19.94,-0.62,21.75,21.51,0.00,19.08,0.00,0.000000,0.000000
,529,261,229,393,0,34.00,25.07,2606.86,747.62,19.81,-1.81,22.81,21.38,0.00,19.08,0.00,0.000000,0.000000
,529,346,229,393,0,34.00,25.07,2606.92,747.61,22.62,-4.87,22.69,21.90,0.00,19.08,0.00,0.000000,0.000000
,529,346,229,393,0,34.00,25.07,2606.92,747.61,28.25,-3.87,21.12,24.57,0.00,19.08,0.00,0.000000,0.000000
,529,354,229,393,0,34.00,25.07,2606.89,747.62,31.44,-4.37,18.50,28.27,0.00,19.08,0.00,0.000000,0.000000
,529,319,229,393,0,34.00,25.07,2606.95,747.61,36.75,-7.94,6.00,31.23,0.00,19.08,0.00,0.000000,0.000000
,529,319,229,393,0,34.00,25.07,2606.94,747.61,44.94,-8.50,0.69,35.97,0.00,19.08,0.00,0.000000,0.000000
,529,324,229,393,0,34.00,25.07,2606.93,747.61,317.50,-10.25,2.37,39.52,0.00,19.08,0.00,0.000000,0.000000
,529,324,229,393,0,34.00,25.07,2606.95,747.61,315.44,-6.00,-2.69,43.09,0.00,19.08,0.00,0.000000,0.000000
,371,286,229,393,0,34.00,25.07,2606.91,747.62,311.69,-3.87,0.94,42.80,0.00,19.08,0.00,0.000000,0.000000
,371,286,229,393,0,35.00,25.07,2606.91,747.62,311.94,-1.62,-3.62,40.48,0.00,19.08,0.00,0.000000,0.000000
,387,270,229,393,0,35.00,25.07,2606.90,747.62,311.25,0.00,-6.44,39.72,0.00,19.08,0.00,0.000000,0.000000
,374,330,229,393,0,35.00,25.07,2606.89,747.62,309.81,1.69,-5.00,37.96,0.00,19.08,0.00,0.000000,0.000000
,374,330,229,393,0,35.00,25.07,2606.85,747.62,308.31,-3.69,-0.50,36.40,0.00,19.08,0.00,0.000000,0.000000
,305,365,229,393,0,35.00,25.07,2606.80,747.63,307.69,-5.44,1.87,36.23,0.00,19.08,0.00,0.000000,0.000000
,305,365,229,393,0,35.00,25.07,2606.82,747.62,305.75,-3.25,1.25,35.29,0.00,19.08,0.00,0.000000,0.000000
,349,349,229,393,0,35.00,25.07,2606.85,747.62,306.12,-3.31,0.13,34.97,0.00,19.08,0.00,0.000000,0.000000
,382,313,229,393,0,35.00,25.07,2606.87,747.62,304.81,-2.37,-1.12,34.75,0.00,19.08,0.00,0.000000,0.000000
,382,313,229,393,0,35.00,25.07,2606.86,747.62,304.37,-3.19,-0.69,33.73,0.00,19.08,0.00,0.000000,0.000000
,365,335,229,393,0,36.00,25.07,2606.86,747.62,306.12,-4.69,0.25,33.88,0.00,19.08,0.00,0.000000,0.000000
,365,335,229,393,0,36.00,25.07,2606.87,747.62,306.56,-3.25,0.50,34.88,0.00,19.08,0.00,0.000000,0.000000
,357,344,229,393,0,36.00,25.07,2606.88,747.62,305.87,-0.62,-2.12,35.28,0.00,19.08,0.00,0.000000,0.000000
,365,322,229,393,0,36.00,25.07,2606.85,747.62,304.56,2.62,-4.19,35.62,0.00,19.08,0.00,0.000000,0.000000
,365,322,229,393,0,36.00,25.07,2606.89,747.62,302.25,4.00,-5.62,34.68,0.00,19.08,0.00,0.000000,0.000000
,346,360,229,393,0,36.00,25.07,2606.92,747.61,299.12,4.94,-4.19,32.24,0.00,19.08,0.00,0.000000,0.000000
,346,360,229,393,0,36.00,25.07,2606.87,747.62,296.50,0.44,1.87,29.56,0.00,19.08,0.00,0.000000,0.000000
,319,401,229,393,0,36.00,25.07,2606.86,747.62,291.06,5.19,0.94,27.14,0.00,19.08,0.00,0.000000,0.000000
,319,401,229,393,0,36.00,25.07,2606.85,747.62,289.62,9.50,-3.31,23.00,0.00,19.08,0.00,0.000000,0.000000
,327,412,229,393,0,37.00,25.07,2606.86,747.62,288.25,11.81,-6.50,19.96,0.00,19.08,0.00,0.000000,0.000000
,374,414,229,393,0,37.00,25.07,2606.81,747.62,288.00,11.06,-11.56,17.47,0.00,19.08,0.00,0.000000,0.000000
,374,414,229,393,0,37.00,25.07,2606.79,747.63,282.12,8.88,-9.88,14.34,0.00,19.08,0.00,0.000000,0.000000
,316,472,229,393,0,37.00,25.07,2606.75,747.63,280.25,6.12,-8.06,9.50,0.00,19.08,0.00,0.000000,0.000000
,256,469,229,393,0,37.00,25.07,2606.73,747.63,280.31,5.31,-7.37,9.81,0.00,19.08,0.00,0.000000,0.000000
,289,428,229,393,0,37.00,25.07,2606.72,747.63,279.75,7.75,-8.06,9.84,0.00,19.08,0.00,0.000000,0.000000
,289,428,229,393,0,37.00,25.07,2606.74,747.63,281.12,10.88,-7.37,9.47,0.00,19.08,0.00,0.000000,0.000000
,297,414,229,393,0,37.00,25.07,2606.73,747.63,284.69,9.75,-3.31,11.39,0.00,19.08,0.00,0.000000,0.000000
,297,414,229,393,0,38.00,25.07,2606.77,747.63,284.69,6.81,0.19,14.28,0.00,19.08,0.00,0.000000,0.000000
,294,458,229,393,0,38.00,25.07,2606.76,747.63,283.69,6.62,0.94,15.57,0.00,19.08,0.00,0.000000,0.000000
,335,458,229,393,0,38.00,25.07,2606.79,747.63,284.06,5.19,-1.06,15.88,0.00,19.08,0.00,0.000000,0.000000
,335,458,229,393,0,38.00,25.07,2606.85,747.62,284.81,3.12,-2.12,16.19,0.00,19.08,0.00,0.000000,0.000000
,374,428,229,393,0,38.00,25.07,2606.88,747.62,287.12,1.81,-2.69,16.34,0.00,19.08,0.00,0.000000,0.000000
,357,414,229,393,0,38.00,25.07,2606.88,747.62,288.06,1.81,-1.62,17.13,0.00,19.08,0.00,0.000000,0.000000
,357,414,229,393,0,38.00,25.07,2606.87,747.62,291.19,0.56,-0.19,18.71,0.00,19.08,0.00,0.000000,0.000000
,341,382,229,393,0,38.00,25.07,2606.88,747.62,294.00,-2.12,-0.44,20.02,0.00,19.08,0.00,0.000000,0.000000
,352,382,229,393,0,39.00,25.07,2606.90,747.62,291.25,-3.31,-4.56,20.66,0.00,19.08,0.00,0.000000,0.000000
,352,382,229,393,0,39.00,25.07,2606.89,747.62,288.81,-2.69,-12.75,20.14,0.00,19.08,0.00,0.000000,0.000000
,362,346,229,393,0,39.00,25.07,2606.92,747.61,286.62,-1.37,-15.25,18.05,0.00,19.08,0.00,0.000000,0.000000
,264,338,229,393,0,39.00,25.07,2606.98,747.61,288.19,-1.94,-16.69,16.37,0.00,19.08,0.00,0.000000,0.000000
,264,338,229,393,0,39.00,25.07,2607.00,747.61,287.25,-1.87,-15.31,16.48,0.00,19.08,0.00,0.000000,0.000000
,221,354,229,393,0,39.00,25.07,2607.00,747.61,285.87,-0.69,-13.31,15.78,0.00,19.08,0.00,0.000000,0.000000
,207,349,229,393,0,39.00,25.07,2607.02,747.61,285.31,-1.87,-11.31,15.22,0.00,19.08,0.00,0.000000,0.000000
,207,349,229,393,0,39.00,25.06,2607.05,747.60,285.87,-2.75,-10.94,14.80,0.00,19.08,0.00,0.000000,0.000000
,240,360,229,393,0,39.00,25.06,2607.05,747.60,287.87,0.88,-13.69,15.08,0.00,19.08,0.00,0.000000,0.000000
,261,338,229,393,0,40.00,25.06,2607.03,747.60,288.25,5.25,-18.12,15.79,0.00,19.08,0.00,0.000000,0.000000
,261,338,229,393,0,40.00,25.06,2606.99,747.61,284.56,6.31,-18.87,14.59,0.00,19.08,0.00,0.000000,0.000000
,234,374,229,393,0,40.00,25.06,2607.01,747.61,282.44,5.06,-17.69,11.06,0.00,19.08,0.00,0.000000,0.000000
,234,374,229,393,0,40.00,25.06,2607.00,747.60,282.50,3.50,-17.25,9.79,0.00,19.08,0.00,0.000000,0.000000
,202,425,229,393,0,40.00,25.07,2607.03,747.60,281.00,4.44,-18.00,8.66,0.00,19.08,0.00,0.000000,0.000000
,202,412,229,393,0,40.00,25.06,2607.03,747.60,280.06,4.44,-17.69,7.40,0.00,19.08,0.00,0.000000,0.000000
,202,412,229,393,0,40.00,25.06,2607.04,747.60,278.25,3.69,-16.25,6.15,0.00,19.08,0.00,0.000000,0.000000
,202,406,229,393,0,40.00,25.06,2607.09,747.60,275.00,3.44,-15.19,4.29,0.00,19.08,0.00,0.000000,0.000000
,202,406,229,393,0,41.00,25.06,2607.12,747.60,273.81,3.62,-15.94,2.66,0.00,19.08,0.00,0.000000,0.000000
,202,406,229,393,0,41.00,25.06,2607.11,747.60,274.25,3.75,-16.50,2.08,0.00,19.08,0.00,0.000000,0.000000
,221,398,229,393,0,41.00,25.06,2607.11,747.60,275.75,4.81,-16.31,1.77,0.00,19.08,0.00,0.000000,0.000000
,215,398,229,393,0,41.00,25.06,2607.12,747.60,278.19,7.50,-14.69,2.95,0.00,19.08,0.00,0.000000,0.000000
,210,409,229,393,0,41.00,25.06,2607.10,747.60,280.87,8.88,-14.75,4.18,0.00,19.08,0.00,0.000000,0.000000
,210,409,229,393,0,41.00,25.06,2607.05,747.60,285.56,9.56,-15.75,6.98,0.00,19.08,0.00,0.000000,0.000000
,226,436,229,393,0,41.00,25.06,2607.09,747.60,288.00,10.13,-13.75,11.38,0.00,19.08,0.00,0.000000,0.000000
,226,436,229,393,0,41.00,25.06,2607.07,747.60,288.37,6.19,-14.69,13.65,0.00,19.08,0.00,0.000000,0.000000
,215,455,229,393,0,42.00,25.07,2607.08,747.60,286.87,3.69,-15.44,14.29,0.00,19.08,0.00,0.000000,0.000000
,234,461,229,393,0,42.00,25.07,2607.11,747.60,279.81,4.37,-12.38,11.00,0.00,19.08,0.00,0.000000,0.000000
,218,398,229,393,0,42.00,25.07,2607.10,747.60,276.06,4.31,-8.56,9.08,0.00,19.08,0.00,0.000000,0.000000
,218,398,229,393,0,42.00,25.07,2607.07,747.60,270.56,6.75,-6.12,3.71,0.00,19.08,0.00,0.000000,0.000000
,248,406,229,393,0,42.00,25.07,2607.05,747.60,271.12,7.56,-6.12,359.49,0.00,19.08,0.00,0.000000,0.000000
,248,406,229,393,0,42.00,25.07,2607.07,747.60,273.81,7.25,-5.44,358.96,0.00,19.08,0.00,0.000000,0.000000
,308,428,229,393,0,42.00,25.07,2607.06,747.60,277.44,6.81,-6.50,0.76,0.00,19.08,0.00,0.000000,0.000000
,308,436,229,393,0,42.00,25.07,2607.07,747.60,280.81,6.06,-7.75,2.07,0.00,19.08,0.00,0.000000,0.000000
,308,436,229,393,0,43.00,25.07,2607.08,747.60,282.62,5.81,-9.25,4.57,0.00,19.08,0.00,0.000000,0.000000
,305,428,229,393,0,43.00,25.07,2607.09,747.60,287.31,4.37,-12.44,7.01,0.00,19.08,0.00,0.000000,0.000000
,305,428,229,393,0,43.00,25.07,2607.05,747.60,292.31,0.13,-13.13,13.16,0.00,19.08,0.00,0.000000,0.000000
,291,423,229,393,0,43.00,25.07,2607.04,747.60,295.31,-4.94,-14.81,17.84,0.00,19.08,0.00,0.000000,0.000000
,248,406,229,393,0,43.00,25.07,2607.04,747.60,290.00,-4.50,-13.75,19.73,0.00,19.08,0.00,0.000000,0.000000
,248,406,229,393,0,43.00,25.07,2607.06,747.60,284.44,-7.62,-15.06,18.22,0.00,19.08,0.00,0.000000,0.000000
,226,319,229,393,0,43.00,25.07,2607.06,747.60,276.12,-5.12,-12.94,15.11,0.00,19.08,0.00,0.000000,0.000000
,226,305,229,393,0,43.00,25.07,2607.08,747.60,272.25,-2.25,-14.75,9.24,0.00,19.08,0.00,0.000000,0.000000
,226,305,229,393,0,43.00,25.06,2607.08,747.60,271.37,-3.25,-12.38,4.92,0.00,19.08,0.00,0.000000,0.000000
,242,319,229,393,0,44.00,25.06,2607.09,747.60,271.19,-0.25,-9.63,3.73,0.00,19.08,0.00,0.000000,0.000000
,240,341,229,393,0,44.00,25.06,2607.09,747.60,273.19,0.69,-6.94,3.56,0.00,19.08,0.00,0.000000,0.000000
,240,341,229,393,0,44.00,25.06,2607.09,747.60,271.00,1.31,-5.37,4.23,0.00,19.08,0.00,0.000000,0.000000
,275,365,229,393,0,44.00,25.06,2607.07,747.60,270.12,1.25,-11.06,3.60,0.00,19.08,0.00,0.000000,0.000000
,275,365,229,393,0,44.00,25.06,2607.05,747.60,268.62,-1.87,-17.19,0.27,0.00,19.08,0.00,0.000000,0.000000
,316,376,229,393,0,44.00,25.06,2607.06,747.60,264.87,-6.50,-19.25,357.99,0.00,19.08,0.00,0.000000,0.000000
,212,368,229,393,0,44.00,25.06,2607.04,747.60,261.31,-5.12,-19.00,356.05,0.00,19.08,0.00,0.000000,0.000000
,212,368,229,393,0,44.00,25.06,2607.03,747.60,257.37,-0.25,-17.94,351.27,0.00,19.08,0.00,0.000000,0.000000
,202,305,229,393,0,45.00,25.06,2607.00,747.61,256.19,5.12,-18.50,349.05,0.00,19.08,0.00,0.000000,0.000000
,202,346,229,393,0,45.00,25.06,2606.98,747.61,263.62,1.19,-18.31,346.98,0.00,19.08,0.00,0.000000,0.000000
,202,346,229,393,0,45.00,25.06,2606.98,747.61,266.37,-4.19,-15.38,350.21,0.00,19.08,0.00,0.000000,0.000000
,202,412,229,393,0,45.00,25.06,2606.97,747.61,267.94,-4.00,-19.37,354.39,0.00,19.08,0.00,0.000000,0.000000
,202,376,229,393,0,45.00,25.06,2607.00,747.61,272.56,-5.25,-17.69,356.78,0.00,19.08,0.00,0.000000,0.000000
,202,376,229,393,0,45.00,25.06,2606.99,747.61,271.37,-6.31,-13.44,359.55,0.00,19.08,0.00,0.000000,0.000000
,202,327,229,393,0,45.00,25.06,2606.99,747.61,267.50,-5.00,-9.63,0.40,0.00,19.08,0.00,0.000000,0.000000
,202,327,229,393,0,45.00,25.06,2606.96,747.61,266.06,-8.19,-8.31,0.72,0.00,19.08,0.00,0.000000,0.000000
,237,305,229,393,0,45.00,25.06,2606.95,747.61,266.94,-9.81,-12.50,359.63,0.00,19.08,0.00,0.000000,0.000000
,275,319,229,393,0,46.00,25.06,2606.98,747.61,268.12,-5.56,-18.00,358.97,0.00,19.08,0.00,0.000000,0.000000
,275,319,229,393,0,46.00,25.06,2607.03,747.60,274.56,-4.87,-19.44,357.50,0.00,19.08,0.00,0.000000,0.000000
,248,273,229,393,0,46.00,25.06,2607.02,747.61,287.50,-8.00,-18.19,0.40,0.00,19.08,0.00,0.000000,0.000000
,202,324,229,393,0,46.00,25.06,2607.05,747.60,301.25,-11.13,-15.63,10.87,0.00,19.08,0.00,0.000000,0.000000
,202,324,229,393,0,46.00,25.06,2607.03,747.60,309.94,-8.94,-15.00,22.63,0.00,19.08,0.00,0.000000,0.000000
,202,289,229,393,0,46.00,25.06,2607.03,747.60,314.31,-8.81,-16.37,30.48,0.00,19.08,0.00,0.000000,0.000000
,218,259,229,393,0,46.00,25.06,2607.06,747.60,307.94,-7.19,-12.31,32.45,0.00,19.08,0.00,0.000000,0.000000
,218,259,229,393,0,46.00,25.06,2607.02,747.61,301.25,-5.62,-5.81,29.42,0.00,19.08,0.00,0.000000,0.000000
,210,289,229,393,0,47.00,25.06,2607.03,747.60,297.81,-10.31,0.31,26.14,0.00,19.08,0.00,0.000000,0.000000
,248,297,229,393,0,47.00,25.06,2607.06,747.60,298.94,-14.00,-1.44,25.10,0.00,19.08,0.00,0.000000,0.000000
,248,297,229,393,0,47.00,25.06,2607.07,747.60,299.62,-10.06,-7.50,22.85,0.00,19.08,0.00,0.000000,0.000000
,368,286,229,393,0,47.00,25.06,2607.07,747.60,302.19,-4.87,-12.50,21.23,0.00,19.08,0.00,0.000000,0.000000
,352,231,229,393,0,47.00,25.06,2607.03,747.60,305.50,-3.25,-11.06,20.56,0.00,19.08,0.00,0.000000,0.000000
,352,231,229,393,0,47.00,25.06,2606.97,747.61,309.69,-2.75,-12.56,21.87,0.00,19.08,0.00,0.000000,0.000000
,248,319,229,393,0,47.00,25.06,2606.95,747.61,314.12,-5.50,-8.06,26.48,0.00,19.08,0.00,0.000000,0.000000
,253,346,229,393,0,47.00,25.06,2606.89,747.62,312.44,-5.56,-6.62,31.49,0.00,19.08,0.00,0.000000,0.000000
,253,346,229,393,0,48.00,25.06,2606.88,747.62,308.00,-4.81,-6.31,31.78,0.00,19.08,0.00,0.000000,0.000000
,289,313,229,393,0,48.00,25.06,2606.82,747.62,301.69,-4.81,-4.62,29.74,0.00,19.08,0.00,0.000000,0.000000
,289,313,229,393,0,48.00,25.06,2606.85,747.62,294.12,-0.06,-0.75,26.98,0.00,19.08,0.00,0.000000,0.000000
,305,322,229,393,0,48.00,25.05,2606.80,747.63,286.69,-3.69,1.50,22.76,0.00,19.08,0.00,0.000000,0.000000
,322,322,229,393,0,48.00,25.05,2606.80,747.63,281.56,-2.25,-3.37,17.90,0.00,19.08,0.00,0.000000,0.000000
,322,322,229,393,0,48.00,25.05,2606.79,747.63,279.06,3.62,-9.25,12.53,0.00,19.08,0.00,0.000000,0.000000
,379,333,229,393,0,48.00,25.05,2606.80,747.63,282.44,4.50,-15.38,5.57,0.00,19.08,0.00,0.000000,0.000000
,379,333,229,393,0,48.00,25.05,2606.77,747.63,284.56,3.37,-14.81,2.79,0.00,19.08,0.00,0.000000,0.000000
,278,398,229,393,0,48.00,25.05,2606.72,747.63,287.56,1.69,-17.25,2.36,0.00,19.08,0.00,0.000000,0.000000
,221,406,229,393,0,49.00,25.05,2606.73,747.63,291.87,1.19,-16.12,2.71,0.00,19.08,0.00,0.000000,0.000000
,221,406,229,393,0,49.00,25.05,2606.79,747.63,297.06,2.81,-16.56,7.89,0.00,19.08,0.00,0.000000,0.000000
,202,379,229,393,0,49.00,25.06,2606.79,747.63,296.06,-1.25,-13.00,10.11,0.00,19.08,0.00,0.000000,0.000000
,210,390,229,393,0,49.00,25.05,2606.81,747.63,299.06,-5.69,1.31,15.75,0.00,19.08,0.00,0.000000,0.000000
,210,390,229,393,0,49.00,25.05,2606.83,747.62,300.87,-11.94,3.37,19.74,0.00,19.08,0.00,0.000000,0.000000
,242,354,229,393,0,49.00,25.05,2606.86,747.62,295.75,-15.81,-2.06,21.42,0.00,19.08,0.00,0.000000,0.000000
,376,313,229,393,0,49.00,25.05,2606.89,747.62,294.50,-13.13,-7.37,19.40,0.00,19.08,0.00,0.000000,0.000000
,376,313,229,393,0,49.00,25.05,2606.91,747.62,294.19,-9.94,-11.38,13.20,0.00,19.08,0.00,0.000000,0.000000
,346,215,229,393,0,50.00,25.05,2606.90,747.62,295.37,-10.75,-8.13,11.59,0.00,19.08,0.00,0.000000,0.000000
,346,215,229,393,0,50.00,25.04,2606.89,747.62,299.12,-9.81,-13.31,10.24,0.00,19.08,0.00,0.000000,0.000000
,261,267,229,393,0,50.00,25.04,2606.87,747.62,296.75,-7.62,-19.06,6.48,0.00,19.08,0.00,0.000000,0.000000
,289,264,229,393,0,50.00,25.04,2606.86,747.62,292.31,-5.06,-21.94,358.01,0.00,19.08,0.00,0.000000,0.000000
,289,264,229,393,0,50.00,25.04,2606.92,747.61,285.56,-3.12,-20.00,352.23,0.00,19.08,0.00,0.000000,0.000000
,202,294,229,393,0,50.00,25.04,2606.98,747.61,273.06,-4.50,-17.81,347.87,0.00,19.08,0.00,0.000000,0.000000
,202,294,229,393,0,50.00,25.04,2607.02,747.61,258.87,-4.62,-18.56,340.43,0.00,19.08,0.00,0.000000,0.000000
,202,341,229,393,0,50.00,25.04,2607.02,747.61,249.12,-6.19,-18.81,331.13,0.00,19.08,0.00,0.000000,0.000000
,202,324,229,393,0,50.00,25.04,2607.03,747.60,240.87,-8.31,-20.00,325.34,0.00,19.08,0.00,0.000000,0.000000
,202,324,229,393,0,51.00,25.03,2607.04,747.60,232.94,-3.44,-23.19,318.21,0.00,19.08,0.00,0.000000,0.000000
,202,316,229,393,0,51.00,25.03,2607.04,747.60,231.00,-3.12,-20.25,312.84,0.00,19.08,0.00,0.000000,0.000000
,202,286,229,393,0,51.00,25.03,2607.03,747.60,232.69,-0.56,-21.44,310.72,0.00,19.08,0.00,0.000000,0.000000
,202,335,229,393,0,51.00,25.03,2607.01,747.61,238.44,1.00,-21.44,311.91,0.00,19.08,0.00,0.000000,0.000000
,202,335,229,393,0,51.00,25.03,2607.02,747.60,243.44,-0.81,-21.12,314.25,0.00,19.08,0.00,0.000000,0.000000
,202,362,229,393,0,51.00,25.03,2606.99,747.61,240.37,-1.12,-19.31,319.36,0.00,19.08,0.00,0.000000,0.000000
,202,374,229,393,0,51.00,25.03,2606.98,747.61,233.06,-2.69,-20.50,319.91,0.00,19.08,0.00,0.000000,0.000000
,202,374,229,393,0,51.00,25.03,2606.98,747.61,225.44,-2.94,-17.37,317.17,0.00,19.08,0.00,0.000000,0.000000
,202,357,229,393,0,52.00,25.03,2606.95,747.61,214.56,-1.87,-12.56,311.37,0.00,19.08,0.00,0.000000,0.000000
,202,341,229,393,0,52.00,25.03,2606.96,747.61,203.50,5.75,-12.31,302.63,0.00,19.08,0.00,0.000000,0.000000
,202,341,229,393,0,52.00,25.03,2606.92,747.61,198.62,4.87,-15.63,292.46,0.00,19.08,0.00,0.000000,0.000000
,245,349,229,393,0,52.00,25.02,2606.90,747.62,191.62,6.50,-11.75,289.29,0.00,19.08,0.00,0.000000,0.000000
,248,420,229,393,0,52.00,25.02,2606.92,747.61,184.25,10.19,-10.06,280.52,0.00,19.08,0.00,0.000000,0.000000
,248,420,229,393,0,52.00,25.02,2606.93,747.61,182.62,7.81,-8.44,274.89,0.00,19.08,0.00,0.000000,0.000000
,253,425,229,393,0,52.00,25.02,2606.88,747.62,185.06,8.88,-11.44,272.33,0.00,19.08,0.00,0.000000,0.000000
,286,445,229,393,0,52.00,25.02,2606.87,747.62,191.44,7.69,-14.81,273.14,0.00,19.08,0.00,0.000000,0.000000
,286,445,229,393,0,53.00,25.01,2606.86,747.62,188.87,8.75,-12.31,274.49,0.00,19.08,0.00,0.000000,0.000000
,256,450,229,393,0,53.00,25.01,2606.86,747.62,186.81,10.69,-13.31,274.07,0.00,19.08,0.00,0.000000,0.000000
,256,450,229,393,0,53.00,25.01,2606.88,747.62,190.50,9.56,-13.63,275.03,0.00,19.08,0.00,0.000000,0.000000
,242,439,229,393,0,53.00,25.00,2606.95,747.61,191.81,13.13,-14.50,276.31,0.00,19.08,0.00,0.000000,0.000000
,240,466,229,393,0,53.00,25.00,2606.93,747.61,191.69,11.88,-14.56,277.11,0.00,19.08,0.00,0.000000,0.000000
,240,466,229,393,0,53.00,25.00,2606.90,747.62,187.81,9.06,-11.31,276.76,0.00,19.08,0.00,0.000000,0.000000
,229,491,229,393,0,53.00,24.99,2606.90,747.62,187.31,11.13,-11.38,275.48,0.00,19.08,0.00,0.000000,0.000000
,248,447,229,393,0,53.00,24.99,2606.94,747.61,187.44,9.00,-15.00,275.67,0.00,19.08,0.00,0.000000,0.000000
,248,447,229,393,0,53.00,24.99,2606.90,747.61,189.69,8.56,-13.25,274.84,0.00,19.08,0.00,0.000000,0.000000
,259,472,229,393,0,54.00,24.99,2606.95,747.61,196.87,5.87,-12.13,276.90,0.00,19.08,0.00,0.000000,0.000000
,229,450,229,393,0,54.00,24.99,2606.93,747.61,197.19,4.62,-12.56,280.96,0.00,19.08,0.00,0.000000,0.000000
,229,450,229,393,0,54.00,24.99,2606.98,747.61,198.81,-0.13,-10.50,282.62,0.00,19.08,0.00,0.000000,0.000000
,251,420,229,393,0,54.00,24.99,2607.03,747.60,202.62,-1.37,-11.44,285.97,0.00,19.08,0.00,0.000000,0.000000
,261,374,229,393,0,54.00,24.99,2607.06,747.60,207.62,-5.25,-9.13,289.16,0.00,19.08,0.00,0.000000,0.000000
,261,374,229,393,0,54.00,24.99,2607.12,747.60,206.81,-7.06,-6.25,293.13,0.00,19.08,0.00,0.000000,0.000000
,256,354,229,393,0,54.00,24.99,2607.13,747.59,199.87,-1.87,-8.81,292.99,0.00,19.08,0.00,0.000000,0.000000
,256,354,229,393,0,54.00,24.99,2607.18,747.59,191.81,6.25,-10.38,285.08,0.00,19.08,0.00,0.000000,0.000000
,305,297,229,393,0,55.00,24.99,2607.17,747.59,190.62,2.87,-5.94,279.81,0.00,19.08,0.00,0.000000,0.000000
,283,349,229,393,0,55.00,24.99,2607.19,747.59,193.44,2.25,-6.94,277.17,0.00,19.08,0.00,0.000000,0.000000
,297,406,229,393,0,55.00,25.00,2607.15,747.59,196.44,5.37,-9.88,278.26,0.00,19.08,0.00,0.000000,0.000000
,297,406,229,393,0,55.00,25.00,2607.12,747.60,200.12,3.12,-9.00,279.51,0.00,19.08,0.00,0.000000,0.000000
,300,384,229,393,0,55.00,25.00,2607.07,747.60,202.75,2.31,-8.25,282.09,0.00,19.08,0.00,0.000000,0.000000
,300,384,229,393,0,55.00,25.00,2607.06,747.60,203.19,2.06,-8.38,284.98,0.00,19.08,0.00,0.000000,0.000000
,281,393,229,393,0,55.00,25.00,2607.05,747.60,202.87,5.87,-6.69,286.05,0.00,19.08,0.00,0.000000,0.000000
,289,387,229,393,0,55.00,24.99,2607.05,747.60,204.94,5.12,-12.38,288.81,0.00,19.08,0.00,0.000000,0.000000
,289,387,229,393,0,55.00,24.99,2606.98,747.61,207.06,3.06,-9.06,292.19,0.00,19.08,0.00,0.000000,0.000000
,303,420,229,393,0,56.00,24.99,2606.98,747.61,203.81,1.06,-7.56,293.51,0.00,19.08,0.00,0.000000,0.000000
,275,401,229,393,0,56.00,24.99,2606.99,747.61,200.75,0.37,-9.19,293.22,0.00,19.08,0.00,0.000000,0.000000
,275,401,229,393,0,56.00,24.99,2607.01,747.61,198.87,4.31,-10.94,291.09,0.00,19.08,0.00,0.000000,0.000000
,294,374,229,393,0,56.00,24.99,2606.95,747.61,203.12,8.31,-15.75,292.77,0.00,19.08,0.00,0.000000,0.000000
,294,374,229,393,0,56.00,24.99,2606.93,747.61,205.69,6.06,-17.81,295.21,0.00,19.08,0.00,0.000000,0.000000
,264,393,229,393,0,56.00,24.98,2606.91,747.62,210.12,5.31,-19.87,299.99,0.00,19.08,0.00,0.000000,0.000000
,215,445,229,393,0,56.00,24.98,2606.92,747.61,214.81,4.50,-18.44,306.25,0.00,19.08,0.00,0.000000,0.000000
,202,409,229,393,0,56.00,24.98,2606.91,747.62,217.75,5.62,-20.87,308.46,0.00,19.08,0.00,0.000000,0.000000
,202,409,229,393,0,57.00,24.98,2606.94,747.61,213.06,8.88,-20.62,312.34,0.00,19.08,0.00,0.000000,0.000000
,202,406,229,393,0,57.00,24.98,2606.93,747.61,212.56,8.50,-15.50,312.24,0.00,19.08,0.00,0.000000,0.000000
,202,406,229,393,0,57.00,24.97,2606.93,747.61,209.94,9.31,-14.00,310.68,0.00,19.08,0.00,0.000000,0.000000
,202,447,229,393,0,57.00,24.97,2606.92,747.61,206.87,7.94,-16.31,308.46,0.00,19.08,0.00,0.000000,0.000000
,218,445,229,393,0,57.00,24.97,2606.91,747.62,205.75,7.69,-18.31,306.76,0.00,19.08,0.00,0.000000,0.000000
,218,445,229,393,0,57.00,24.97,2606.95,747.61,208.69,7.87,-20.25,305.62,0.00,19.08,0.00,0.000000,0.000000
,210,439,229,393,0,57.00,24.97,2606.92,747.61,211.44,8.00,-20.50,305.77,0.00,19.08,0.00,0.000000,0.000000
,202,436,229,393,0,57.00,24.97,2606.90,747.61,215.25,4.81,-17.81,306.96,0.00,19.08,0.00,0.000000,0.000000
,202,436,229,393,0,58.00,24.97,2606.92,747.61,217.50,2.69,-20.37,309.04,0.00,19.08,0.00,0.000000,0.000000
,202,442,229,393,0,58.00,24.97,2606.90,747.61,218.94,2.56,-20.81,309.73,0.00,19.08,0.00,0.000000,0.000000
,202,409,229,393,0,58.00,24.97,2606.91,747.61,213.87,3.25,-18.75,307.95,0.00,19.08,0.00,0.000000,0.000000
,202,409,229,393,0,58.00,24.97,2606.91,747.61,208.94,5.25,-15.31,304.45,0.00,19.08,0.00,0.000000,0.000000
,202,387,229,393,0,58.00,24.97,2606.92,747.61,205.81,5.37,-11.75,298.99,0.00,19.08,0.00,0.000000,0.000000
,207,414,229,393,0,58.00,24.97,2606.93,747.61,207.19,2.56,-14.56,295.30,0.00,19.08,0.00,0.000000,0.000000
,207,414,229,393,0,58.00,24.97,2606.96,747.61,204.75,3.75,-18.25,293.63,0.00,19.08,0.00,0.000000,0.000000
,253,414,229,393,0,58.00,24.97,2606.93,747.61,202.87,9.06,-19.19,289.75,0.00,19.08,0.00,0.000000,0.000000
,202,393,229,393,0,58.00,24.97,2606.95,747.61,204.50,8.75,-18.31,286.08,0.00,19.08,0.00,0.000000,0.000000
,202,393,229,393,0,59.00,24.97,2606.95,747.61,207.19,9.50,-19.31,286.15,0.00,19.08,0.00,0.000000,0.000000
,202,450,229,393,0,59.00,24.97,2606.97,747.61,210.44,6.37,-17.62,288.05,0.00,19.08,0.00,0.000000,0.000000
,202,455,229,393,0,59.00,24.97,2606.99,747.61,210.87,5.50,-18.81,289.38,0.00,19.08,0.00,0.000000,0.000000
,202,455,229,393,0,59.00,24.97,2606.99,747.61,211.87,5.19,-16.87,291.26,0.00,19.08,0.00,0.000000,0.000000
,202,425,229,393,0,59.00,24.97,2606.98,747.61,208.87,5.00,-13.50,293.63,0.00,19.08,0.00,0.000000,0.000000
,202,425,229,393,0,59.00,24.97,2606.91,747.62,204.56,6.00,-13.94,294.67,0.00,19.08,0.00,0.000000,0.000000
,204,414,229,393,0,59.00,24.97,2606.93,747.61,199.06,7.37,-17.12,292.60,0.00,19.08,0.00,0.000000,0.000000
,204,414,229,393,0,59.00,24.97,2606.97,747.61,197.94,4.75,-19.44,290.87,0.00,19.08,0.00,0.000000,0.000000
,234,420,229,393,0,59.00,24.97,2606.98,747.61,198.44,3.25,-22.31,291.12,0.00,19.08,0.00,0.000000,0.000000
,202,434,229,393,0,60.00,24.97,2607.00,747.61,196.87,9.81,-24.87,291.15,0.00,19.08,0.00,0.000000,0.000000
,202,434,229,393,0,60.00,24.97,2607.04,747.60,201.12,13.56,-26.00,290.05,0.00,19.08,0.00,0.000000,0.000000
,202,395,229,393,0,60.00,24.97,2607.06,747.60,209.62,10.25,-23.12,294.46,0.00,19.08,0.00,0.000000,0.000000
,202,395,229,393,0,60.00,24.97,2607.07,747.60,215.87,7.75,-22.94,298.89,0.00,19.08,0.00,0.000000,0.000000
,202,494,229,393,0,60.00,24.97,2607.10,747.60,222.56,2.94,-21.81,309.72,0.00,19.08,0.00,0.000000,0.000000
,202,461,229,393,0,60.00,24.97,2607.15,747.59,226.44,-5.87,-18.75,321.90,0.00,19.08,0.00,0.000000,0.000000
,202,461,229,393,0,60.00,24.97,2607.13,747.59,227.50,-7.37,-19.69,331.20,0.00,19.08,0.00,0.000000,0.000000
,202,393,229,393,0,60.00,24.97,2607.11,747.60,217.25,-0.94,-18.31,333.68,0.00,19.08,0.00,0.000000,0.000000
,202,311,229,393,0,61.00,24.97,2607.10,747.60,213.37,-0.19,-17.62,331.18,0.00,19.08,0.00,0.000000,0.000000
,202,311,229,393,0,61.00,24.97,2607.11,747.60,209.25,-0.31,-17.12,325.30,0.00,19.08,0.00,0.000000,0.000000
,202,357,229,393,0,61.00,24.97,2607.10,747.60,204.25,5.81,-18.81,319.15,0.00,19.08,0.00,0.000000,0.000000
,202,365,229,393,0,61.00,24.97,2607.12,747.60,198.31,14.31,-19.62,308.43,0.00,19.08,0.00,0.000000,0.000000
,202,365,229,393,0,61.00,24.97,2607.11,747.60,204.62,13.19,-22.25,300.84,0.00,19.08,0.00,0.000000,0.000000
,202,420,229,393,0,61.00,24.97,2607.10,747.60,206.69,12.00,-23.31,299.81,0.00,19.08,0.00,0.000000,0.000000
,202,505,229,393,0,61.00,24.97,2607.12,747.60,210.50,12.69,-23.31,300.62,0.00,19.08,0.00,0.000000,0.000000
,202,505,229,393,0,61.00,24.97,2607.12,747.60,216.06,13.69,-20.56,302.48,0.00,19.08,0.00,0.000000,0.000000
,202,480,229,393,0,62.00,24.97,2607.16,747.59,216.25,14.31,-19.69,303.56,0.00,19.08,0.00,0.000000,0.000000
,202,494,229,393,0,62.00,24.97,2607.17,747.59,214.00,14.25,-16.69,302.53,0.00,19.08,0.00,0.000000,0.000000
,202,494,229,393,0,62.00,24.97,2607.14,747.59,213.69,12.38,-19.87,301.99,0.00,19.08,0.00,0.000000,0.000000
,202,502,229,393,0,62.00,24.97,2607.14,747.59,215.50,7.44,-25.12,301.95,0.00,19.08,0.00,0.000000,0.000000
,202,502,229,393,0,62.00,24.97,2607.09,747.60,218.19,6.62,-25.87,303.23,0.00,19.08,0.00,0.000000,0.000000
,202,491,229,393,0,62.00,24.98,2607.05,747.60,221.69,7.87,-24.81,304.76,0.00,19.08,0.00,0.000000,0.000000
,202,436,229,393,0,62.00,24.98,2607.04,747.60,227.87,10.50,-28.81,305.99,0.00,19.08,0.00,0.000000,0.000000
,202,436,229,393,0,62.00,24.98,2607.03,747.60,235.56,10.75,-28.31,307.46,0.00,19.08,0.00,0.000000,0.000000
,202,439,229,393,0,62.00,24.98,2607.01,747.61,242.50,6.62,-27.25,310.52,0.00,19.08,0.00,0.000000,0.000000
,202,463,229,393,0,63.00,24.98,2607.02,747.60,243.44,4.44,-26.00,316.28,0.00,19.08,0.00,0.000000,0.000000
,202,463,229,393,0,63.00,24.98,2606.96,747.61,243.19,3.37,-28.62,318.82,0.00,19.08,0.00,0.000000,0.000000
,202,428,229,393,0,63.00,24.97,2607.03,747.60,239.37,4.87,-31.25,318.52,0.00,19.08,0.00,0.000000,0.000000
,202,390,229,393,0,63.00,24.97,2607.09,747.60,235.12,3.69,-25.00,316.06,0.00,19.08,0.00,0.000000,0.000000
,202,390,229,393,0,63.00,24.97,2607.09,747.60,229.19,5.62,-21.87,314.92,0.00,19.08,0.00,0.000000,0.000000
,202,412,229,393,0,63.00,24.97,2607.11,747.60,232.37,1.19,-23.81,310.03,0.00,19.08,0.00,0.000000,0.000000
,202,398,229,393,0,63.00,24.97,2607.15,747.59,231.56,5.12,-26.44,306.64,0.00,19.08,0.00,0.000000,0.000000
,202,398,229,393,0,63.00,24.97,2607.14,747.59,232.81,8.81,-25.37,301.82,0.00,19.08,0.00,0.000000,0.000000
,202,376,229,393,0,64.00,24.97,2607.14,747.59,235.19,6.75,-21.62,296.35,0.00,19.08,0.00,0.000000,0.000000
,202,447,229,393,0,64.00,24.97,2607.08,747.60,240.06,5.44,-20.81,299.09,0.00,19.08,0.00,0.000000,0.000000
,202,447,229,393,0,64.00,24.97,2607.07,747.60,245.44,3.62,-18.00,302.19,0.00,19.08,0.00,0.000000,0.000000
,202,428,229,393,0,64.00,24.97,2607.11,747.60,249.31,2.37,-20.50,305.43,0.00,19.08,0.00,0.000000,0.000000
,202,428,229,393,0,64.00,24.97,2607.13,747.60,251.44,2.37,-20.75,309.23,0.00,19.08,0.00,0.000000,0.000000
,202,398,229,393,0,64.00,24.97,2607.18,747.59,243.44,5.44,-18.37,308.15,0.00,19.08,0.00,0.000000,0.000000
,202,387,229,393,0,64.00,24.97,2607.10,747.60,235.75,9.13,-19.62,303.53,0.00,19.08,0.00,0.000000,0.000000
,202,387,229,393,0,64.00,24.97,2607.10,747.60,235.81,4.62,-20.81,299.45,0.00,19.08,0.00,0.000000,0.000000
,202,417,229,393,0,64.00,24.97,2607.15,747.59,234.94,0.62,-21.19,300.51,0.00,19.08,0.00,0.000000,0.000000
,202,417,229,393,0,65.00,24.97,2607.16,747.59,233.00,3.81,-21.37,298.05,0.00,19.08,0.00,0.000000,0.000000
,202,423,229,393,0,65.00,24.97,2607.15,747.59,232.44,4.50,-22.12,296.30,0.00,19.08,0.00,0.000000,0.000000
,202,371,229,393,0,65.00,24.97,2607.15,747.59,234.00,2.62,-24.37,296.31,0.00,19.08,0.00,0.000000,0.000000
,202,417,229,393,0,65.00,24.97,2607.20,747.59,237.31,-1.37,-24.06,300.52,0.00,19.08,0.00,0.000000,0.000000
,202,417,229,393,0,65.00,24.97,2607.25,747.58,242.75,-6.06,-23.00,307.60,0.00,19.08,0.00,0.000000,0.000000
,202,390,229,393,0,65.00,24.97,2607.31,747.58,242.75,-8.50,-21.44,315.24,0.00,19.08,0.00,0.000000,0.000000
,202,354,229,393,0,65.00,24.97,2607.34,747.57,236.81,-6.94,-21.31,317.77,0.00,19.08,0.00,0.000000,0.000000
,202,354,229,393,0,65.00,24.97,2607.34,747.58,232.94,-5.94,-17.81,317.20,0.00,19.08,0.00,0.000000,0.000000
,202,286,229,393,0,66.00,24.97,2607.32,747.58,227.12,-1.44,-18.44,315.56,0.00,19.08,0.00,0.000000,0.000000
,202,300,229,393,0,66.00,24.96,2607.26,747.58,227.37,-1.19,-18.25,312.02,0.00,19.08,0.00,0.000000,0.000000
,202,300,229,393,0,66.00,24.96,2607.20,747.59,227.81,0.00,-20.56,310.79,0.00,19.08,0.00,0.000000,0.000000
,202,352,229,393,0,66.00,24.96,2607.14,747.59,229.37,2.19,-22.94,309.94,0.00,19.08,0.00,0.000000,0.000000
,202,352,229,393,0,66.00,24.96,2607.06,747.60,234.87,2.75,-22.62,309.35,0.00,19.08,0.00,0.000000,0.000000
,202,365,229,393,0,66.00,24.96,2607.01,747.61,242.37,-0.56,-24.25,314.89,0.00,19.08,0.00,0.000000,0.000000
,202,384,229,393,0,66.00,24.96,2607.01,747.61,245.31,1.12,-23.94,319.02,0.00,19.08,0.00,0.000000,0.000000
,202,384,229,393,0,66.00,24.96,2606.93,747.61,250.06,-1.94,-21.12,323.21,0.00,19.08,0.00,0.000000,0.000000
,202,362,229,393,0,67.00,24.96,2606.90,747.62,251.50,-2.94,-19.94,326.55,0.00,19.08,0.00,0.000000,0.000000
,202,352,229,393,0,67.00,24.96,2606.91,747.62,249.50,-2.19,-20.37,328.04,0.00,19.08,0.00,0.000000,0.000000
,202,352,229,393,0,67.00,24.96,2606.89,747.62,241.31,-0.31,-17.12,326.20,0.00,19.08,0.00,0.000000,0.000000
,202,338,229,393,0,67.00,24.97,2606.88,747.62,230.25,2.50,-13.38,320.90,0.00,19.08,0.00,0.000000,0.000000
,202,338,229,393,0,67.00,24.97,2606.89,747.62,224.06,0.81,-16.87,311.98,0.00,19.08,0.00,0.000000,0.000000
,202,362,229,393,0,67.00,24.97,2606.89,747.62,218.75,0.56,-19.25,307.58,0.00,19.08,0.00,0.000000,0.000000
,240,387,229,393,0,67.00,24.97,2606.93,747.61,216.62,2.62,-19.87,301.11,0.00,19.08,0.00,0.000000,0.000000
,240,387,229,393,0,67.00,24.97,2606.93,747.61,218.44,4.19,-18.94,298.75,0.00,19.08,0.00,0.000000,0.000000
,202,368,229,393,0,67.00,24.97,2606.92,747.61,222.69,2.81,-18.94,296.95,0.00,19.08,0.00,0.000000,0.000000
,202,368,229,393,0,68.00,24.97,2606.91,747.62,225.25,0.00,-20.81,299.20,0.00,19.08,0.00,0.000000,0.000000
,202,390,229,393,0,68.00,24.97,2606.87,747.62,225.44,-2.56,-21.87,301.31,0.00,19.08,0.00,0.000000,0.000000
,202,390,229,393,0,68.00,24.97,2606.84,747.62,222.56,-0.06,-24.62,300.91,0.00,19.08,0.00,0.000000,0.000000
,202,390,229,393,0,68.00,24.97,2606.85,747.62,215.56,1.19,-24.44,296.91,0.00,19.08,0.00,0.000000,0.000000
,202,344,229,393,0,68.00,24.97,2606.81,747.62,207.75,0.19,-22.00,292.49,0.00,19.08,0.00,0.000000,0.000000
,202,365,229,393,0,68.00,24.96,2606.84,747.62,198.44,3.31,-19.75,287.18,0.00,19.08,0.00,0.000000,0.000000
,202,365,229,393,0,68.00,24.96,2606.82,747.62,189.75,4.00,-19.75,279.20,0.00,19.08,0.00,0.000000,0.000000
,202,365,229,393,0,68.00,24.96,2606.85,747.62,183.56,2.25,-15.63,271.61,0.00,19.08,0.00,0.000000,0.000000
,202,412,229,393,0,69.00,24.96,2606.86,747.62,178.06,6.75,-15.13,267.37,0.00,19.08,0.00,0.000000,0.000000
,202,412,229,393,0,69.00,24.96,2606.94,747.61,179.25,9.13,-17.31,261.47,0.00,19.08,0.00,0.000000,0.000000
,218,384,229,393,0,69.00,24.96,2606.94,747.61,184.31,7.87,-19.50,261.31,0.00,19.08,0.00,0.000000,0.000000
,218,384,229,393,0,69.00,24.96,2606.96,747.61,188.75,7.00,-18.56,264.72,0.00,19.08,0.00,0.000000,0.000000
,202,453,229,393,0,69.00,24.96,2606.94,747.61,194.37,3.62,-21.37,267.96,0.00,19.08,0.00,0.000000,0.000000
,202,431,229,393,0,69.00,24.96,2606.95,747.61,196.25,1.12,-21.62,270.57,0.00,19.08,0.00,0.000000,0.000000
,202,431,229,393,0,69.00,24.96,2606.98,747.61,197.69,0.75,-24.37,276.32,0.00,19.08,0.00,0.000000,0.000000
,202,398,229,393,0,69.00,24.96,2607.02,747.61,195.62,1.81,-23.75,279.75,0.00,19.08,0.00,0.000000,0.000000
,202,374,229,393,0,69.00,24.96,2607.06,747.60,191.62,1.69,-21.62,279.31,0.00,19.08,0.00,0.000000,0.000000
,202,374,229,393,0,70.00,24.96,2607.10,747.60,184.12,5.00,-21.69,275.62,0.00,19.08,0.00,0.000000,0.000000
,202,382,229,393,0,70.00,24.96,2607.14,747.59,181.87,1.06,-24.87,273.06,0.00,19.08,0.00,0.000000,0.000000
,202,414,229,393,0,70.00,24.96,2607.21,747.59,176.94,1.94,-24.62,268.05,0.00,19.08,0.00,0.000000,0.000000
,202,414,229,393,0,70.00,24.96,2607.20,747.59,177.25,4.37,-24.19,264.88,0.00,19.08,0.00,0.000000,0.000000
,202,374,229,393,0,70.00,24.96,2607.22,747.59,180.12,6.19,-28.31,265.27,0.00,19.08,0.00,0.000000,0.000000
,202,374,229,393,0,70.00,24.96,2607.20,747.59,182.87,3.50,-28.37,267.13,0.00,19.08,0.00,0.000000,0.000000
,202,406,229,393,0,70.00,24.96,2607.18,747.59,183.19,2.94,-28.87,267.74,0.00,19.08,0.00,0.000000,0.000000
,202,423,229,393,0,70.00,24.96,2607.18,747.59,180.94,3.69,-30.06,268.59,0.00,19.08,0.00,0.000000,0.000000
,202,423,229,393,0,70.00,24.96,2607.18,747.59,177.19,4.31,-26.50,268.26,0.00,19.08,0.00,0.000000,0.000000
,202,393,229,393,0,71.00,24.96,2607.28,747.58,173.31,4.69,-25.06,264.19,0.00,19.08,0.00,0.000000,0.000000
,202,393,229,393,0,71.00,24.96,2607.26,747.58,169.56,7.69,-23.06,262.82,0.00,19.08,0.00,0.000000,0.000000
,202,406,229,393,0,71.00,24.96,2607.23,747.59,162.19,8.63,-18.37,258.60,0.00,19.08,0.00,0.000000,0.000000
,202,409,229,393,0,71.00,24.96,2607.19,747.59,155.00,9.13,-18.56,253.94,0.00,19.08,0.00,0.000000,0.000000
,202,409,229,393,0,71.00,24.96,2607.12,747.60,146.69,9.44,-19.56,245.22,0.00,19.08,0.00,0.000000,0.000000
,202,447,229,393,0,71.00,24.96,2607.10,747.60,148.25,5.62,-22.62,238.74,0.00,19.08,0.00,0.000000,0.000000
,202,447,229,393,0,71.00,24.96,2607.07,747.60,149.31,5.56,-20.69,237.52,0.00,19.08,0.00,0.000000,0.000000
,202,455,229,393,0,71.00,24.96,2607.07,747.60,151.31,6.69,-19.50,236.77,0.00,19.08,0.00,0.000000,0.000000
,202,455,229,393,0,71.00,24.97,2607.06,747.60,155.31,8.56,-20.87,238.69,0.00,19.08,0.00,0.000000,0.000000
,202,417,229,393,0,72.00,24.97,2607.04,747.60,163.06,9.63,-24.87,242.83,0.00,19.08,0.00,0.000000,0.000000
,202,436,229,393,0,72.00,24.97,2607.05,747.60,167.25,8.69,-24.19,249.98,0.00,19.08,0.00,0.000000,0.000000
,202,436,229,393,0,72.00,24.97,2607.04,747.60,165.87,7.25,-25.69,255.19,0.00,19.08,0.00,0.000000,0.000000
,202,455,229,393,0,72.00,24.97,2606.99,747.61,159.56,12.00,-23.87,257.05,0.00,19.08,0.00,0.000000,0.000000
,202,434,229,393,0,72.00,24.97,2606.98,747.61,154.69,15.13,-27.19,254.04,0.00,19.08,0.00,0.000000,0.000000
,202,434,229,393,0,72.00,24.97,2606.95,747.61,151.19,15.25,-25.50,251.33,0.00,19.08,0.00,0.000000,0.000000
,202,480,229,393,0,72.00,24.96,2606.99,747.61,142.94,13.88,-19.06,246.46,0.00,19.08,0.00,0.000000,0.000000
,202,513,229,393,0,72.00,24.96,2607.03,747.60,138.00,11.88,-15.25,240.70,0.00,19.08,0.00,0.000000,0.000000
,202,513,229,393,0,73.00,24.97,2607.05,747.60,135.37,11.38,-12.00,235.28,0.00,19.08,0.00,0.000000,0.000000
,202,496,229,393,0,73.00,24.97,2607.06,747.60,139.31,10.06,-11.63,234.53,0.00,19.08,0.00,0.000000,0.000000
,202,496,229,393,0,73.00,24.97,2607.02,747.61,145.12,10.69,-9.56,235.36,0.00,19.08,0.00,0.000000,0.000000
,251,472,229,393,0,73.00,24.97,2607.01,747.61,151.62,12.63,-8.44,237.98,0.00,19.08,0.00,0.000000,0.000000
,256,461,229,393,0,73.00,24.97,2607.01,747.61,159.81,13.75,-11.13,244.35,0.00,19.08,0.00,0.000000,0.000000
,256,461,229,393,0,73.00,24.97,2607.04,747.60,164.94,11.50,-13.56,252.17,0.00,19.08,0.00,0.000000,0.000000
,286,485,229,393,0,73.00,24.97,2607.05,747.60,168.50,9.06,-15.69,258.37,0.00,19.08,0.00,0.000000,0.000000
,286,485,229,393,0,73.00,24.97,2607.04,747.60,168.44,9.94,-13.50,262.39,0.00,19.08,0.00,0.000000,0.000000
,245,485,229,393,0,73.00,24.97,2607.03,747.60,167.12,12.81,-18.06,262.68,0.00,19.08,0.00,0.000000,0.000000
,215,450,229,393,0,74.00,24.97,2607.02,747.61,161.81,15.75,-14.38,262.12,0.00,19.08,0.00,0.000000,0.000000
,204,475,229,393,0,74.00,24.97,2607.01,747.61,155.00,16.37,-13.38,258.00,0.00,19.08,0.00,0.000000,0.000000
,204,475,229,393,0,74.00,24.97,2607.03,747.60,148.00,15.31,-11.63,252.02,0.00,19.08,0.00,0.000000,0.000000
,229,516,229,393,0,74.00,24.97,2607.05,747.60,136.25,15.31,-8.56,244.06,0.00,19.08,0.00,0.000000,0.000000
